osm_id,code,fclass,name,lon,lat
367803576,2014,arts_centre,Hāna Cultural Center,-155.98853,20.75923
367803878,2012,community_centre,Paia Community Center,-156.37782,20.91841
570438535,2501,supermarket,Hana Ranch Store,-155.98805,20.75112
571342435,2405,hostel,Banana Bungalow Maui Hostel,-156.50386,20.89188
857938777,2082,school,,-156.44872,20.86237
1194659493,2303,cafe,Cafe des Amis,-156.38037,20.91525
1241037959,2501,supermarket,Safeway 1500,-156.44853,20.75274
1427603362,2501,supermarket,Safeway,-156.68408,20.88676
1495728303,2501,supermarket,Times Market,-156.68772,20.94724
1582293415,2303,cafe,Starbucks,-156.44341,20.68702
1587936916,2501,supermarket,Foodland,-156.48819,20.90608
1849059870,2501,supermarket,Foodland Farms,-156.68008,20.88527
2666713602,2501,supermarket,Down to Earth,-156.45495,20.88262
2666713605,2082,school,Maui Surf Clinics,-156.67559,20.86823
2888532702,2303,cafe,Laulima Farm,-156.05973,20.65161
2905669387,2303,cafe,Starbucks,-156.47507,20.88789
2905725677,2303,cafe,Starbucks,-156.67966,20.87722
3471966181,2303,cafe,Starbucks,-156.69608,20.91593
3472450471,2303,cafe,Castaway Cafe,-156.69241,20.93381
3473570742,2303,cafe,Island Press Coffee,-156.69044,20.92597
3479627533,2303,cafe,Island Vintage Coffee,-156.69466,20.92103
3630752993,2303,cafe,Nahiku Cafe,-156.05206,20.79425
4211818293,2303,cafe,Waikiki coffee company,-156.50143,20.88799
4222943589,2303,cafe,Maui Coffee Roasters,-156.454,20.88574
4232935810,2501,supermarket,Island Grocery Depot,-156.46004,20.89463
4289362495,2303,cafe,Joy's Place,-156.45061,20.72998
4289551792,2501,supermarket,Mana Foods,-156.38006,20.91529
4309678696,2303,cafe,Halfway to Hana,-156.14232,20.85358
4325955593,2303,cafe,Grandma's Coffehouse,-156.35673,20.70529
4365883803,2303,cafe,Cafe Kula,-156.44076,20.68312
4450048922,2303,cafe,Java Cafe,-156.45506,20.7501
4462458290,2303,cafe,Sip Me,-156.31144,20.85549
4464025589,2303,cafe,Market Fresh Bistro,-156.31172,20.85526
4472149745,2303,cafe,Cafe @ la plage,-156.44631,20.72013
4477469494,2303,cafe,,-156.38139,20.91626
4489578389,2303,cafe,Wailuku Coffee Co.,-156.50186,20.88825
4489648189,2303,cafe,Ono Gelato Co,-156.68012,20.87546
4551494090,2405,hostel,,-156.37741,20.91101
4604331784,2501,supermarket,Safeway,-156.44454,20.87909
4795856551,2303,cafe,Starbucks,-156.4527,20.73436
4795892819,2303,cafe,Lava Java,-156.45191,20.73175
4795892820,2504,mall,Kihei Kalama Village,-156.45188,20.73189
4796030452,2303,cafe,S & Q's Shave Ice & Coffee,-156.44654,20.71921
4802610382,2303,cafe,Da Kitchen Express,-156.44612,20.71904
4804902036,2303,cafe,Cinnamon Roll Place,-156.44613,20.71851
4842902459,2082,school,Hana Community Center,-155.98391,20.75307
4843340689,2303,cafe,Hana Harvest,-156.07764,20.80117
4879371832,2501,supermarket,Friendly Market Center,-157.0203,21.09063
5046502240,2504,mall,Kahului Shopping Center,-156.46891,20.88988
5371638123,2303,cafe,Island Chef,-156.07771,20.80113
5371649023,2082,school,Cooking class,-156.32346,20.7531
5371649024,2303,cafe,Da Fish Shack,-155.98663,20.74896
5371649124,2303,cafe,Thai food by Pranee,-155.98436,20.75438
5371649125,2303,cafe,Huli huli chicken,-155.9836,20.72711
5371660822,2303,cafe,Troy’s Plate Lunch,-155.98669,20.74902
5371660823,2303,cafe,Garden Gourmet Cafe,-156.02325,20.78352
5371660824,2303,cafe,Chow’s,-155.98661,20.74904
5371675721,2303,cafe,Barefoot Cafe,-155.98343,20.75492
5427710226,2303,cafe,Starbucks,-156.4544,20.88253
5483164953,2501,supermarket,Farmers Market,-156.68591,20.95405
5548802711,2082,school,Pu'u Kukui Elementary School,-156.50795,20.87744
5574949070,2303,cafe,Café Mambo,-156.38056,20.9155
5574949071,2082,school,,-156.13889,20.85166
5574949144,2303,cafe,Sip Me,-156.3789,20.9139
5574949152,2303,cafe,,-156.30712,20.77469
5575066949,2501,supermarket,Foodland,-156.47254,20.88674
5735187126,2303,cafe,a’a Roots,-156.66747,20.98517
5778203145,2303,cafe,Aina Gourmet Market,-156.69057,20.94411
6334759430,2303,cafe,Lei's Family Class Act,-156.47811,20.89138
6351329685,2303,cafe,Napili Coffee Store,-156.66692,20.98498
6355433586,2303,cafe,Hawaiian Village Coffee,-156.67777,20.97259
6357214935,2303,cafe,Starbucks,-156.34251,20.83774
6357214936,2501,supermarket,Foodland,-156.34249,20.8376
6359549085,2303,cafe,Maui’s Best Banana Bread and Coffee Company,-156.67669,20.87444
6373377608,2303,cafe,Starbucks,-156.6837,20.88633
6377215085,2501,supermarket,Whalers General Store,-156.67803,20.97215
6377216885,2303,cafe,Hawaiian Village Coffee,-156.67782,20.97239
6386804821,2303,cafe,Akamai Coffee,-156.45505,20.74818
6515878086,2405,hostel,Ka Hale Mala B&B,-156.95186,21.06762
6595705329,2082,school,Kahului Preschool,-156.46861,20.88709
6693414885,2303,cafe,Bluemoon Café,-156.45241,20.7743
7065042271,2110,hospital,Hana Health,-155.99446,20.76356
7202704327,2303,cafe,Cafe Attitude,-156.06267,20.64964
7202704356,2082,school,Kumu Aina Permaculture School,-156.06604,20.65516
7236181338,2501,supermarket,Napili Market,-156.66728,20.98504
7236181377,2303,cafe,Bay View Cafe,-156.546,20.9971
7238125677,2501,supermarket,Whalers General Store,-156.44063,20.68676
7503710910,2012,community_centre,,-156.68577,20.93331
7660178891,2303,cafe,Starbucks,-156.45582,20.8755
7880043785,2303,cafe,The Coffee Bean & Tea Leaf,-156.50281,20.87286
7899196578,2082,school,Waihee Elementary School,-156.51407,20.93434
8221312617,2303,cafe,I Lava Tacos,-155.98668,20.74879
8241808217,2303,cafe,Starbucks,-156.44445,20.87952
8370160274,2303,cafe,Wailuka Coffee Company,-156.32362,20.9143
8374204186,2501,supermarket,Island Gormet,-156.4399,20.68769
8394504575,2012,community_centre,Social Hall,-156.97969,21.19299
8394504601,2012,community_centre,Wilcox Hall,-156.98385,21.18948
8398549432,2303,cafe,Choice Health Bar,-156.38089,20.91589
8406843928,2303,cafe,,-156.38749,20.62456
8413454829,2501,supermarket,TJ’s Warehouse,-156.48918,20.90299
8654240852,2303,cafe,Maui Pie,-156.4556,20.74921
367803588,2009,courthouse,Maui County Courthouse,-156.50427,20.8858
367803617,2007,library,Moloka‘i Public Library,-157.02528,21.09333
367803681,2007,library,Wailuku Public Library,-156.50778,20.88833
367803708,2007,library,Lāna‘i Public and School Library,-156.92528,20.82944
367803709,2007,library,Lahaina Public Library,-156.67834,20.87275
2681662355,2007,library,Hana Library,-155.99903,20.77767
2936449725,2007,library,Kahului Public Library,-156.47034,20.8876
4527533766,2005,post_office,United States Post Office,-155.98757,20.75067
4592196475,2005,post_office,United States Post Office,-156.31298,20.85232
4842908337,2001,police,Hana Police Station,-155.99352,20.76302
4842908338,2002,fire_station,Hana Fire Station,-155.99318,20.76191
4887151378,2005,post_office,United States Post Office,-157.01973,21.09056
5427848320,2005,post_office,Hoolehua united states postal service,-157.06894,21.16691
5548802706,2007,library,Wailuku Public Library,-156.50496,20.88516
5574949051,2005,post_office,United States Post Office,-156.45612,20.74985
8370122932,2005,post_office,United States Post Office,-156.45399,20.86951
8394504568,2002,fire_station,Old Stone Fire Station,-156.9827,21.19092
8394504570,2005,post_office,United States Post Office,-156.98362,21.19024
8416744051,2005,post_office,,-156.32838,20.76665
